country,location_name,latitude,longitude,timezone,last_updated_epoch,last_updated,temperature_celsius,temperature_fahrenheit,condition_text,wind_mph,wind_kph,wind_degree,wind_direction,pressure_mb,pressure_in,precip_mm,precip_in,humidity,cloud,feels_like_celsius,feels_like_fahrenheit,visibility_km,visibility_miles,uv_index,gust_mph,gust_kph,air_quality_Carbon_Monoxide,air_quality_Ozone,air_quality_Nitrogen_dioxide,air_quality_Sulphur_dioxide,air_quality_PM2.5,air_quality_PM10,air_quality_us-epa-index,air_quality_gb-defra-index,sunrise,sunset,moonrise,moonset,moon_phase,moon_illumination
Madagascar,Ivory,-24.37,46.45,Indian,1718976600,2024-06-21,26.7,80.0,Sunny,6.7,10.8,85,E,1021.0,30.15,0.0,0.0,34,13,26.2,79.2,10.0,6.0,8.0,8.3,13.4,205.3,57.2,0.1,0.0,0.8,1.6,1,1,06:37 AM,05:15 PM,04:33 PM,05:58 AM,Full Moon,99
Guinea-Bissau,Bissau,11.85,-15.58,Africa,1726484400,2024-09-16,26.2,79.2,Light rain,8.3,13.3,242,WSW,1013.0,29.91,5.55,0.22,94,75,30.5,86.8,6.0,3.0,5.0,16.7,26.9,349.65,46.0,0.74,0.555,6.66,9.62,1,1,06:52 AM,07:02 PM,06:01 PM,05:08 AM,Waxing Gibbous,93
Sudan,Khartoum,15.59,32.53,Africa,1723638600,2024-08-14,32.5,90.6,Cloudy,14.8,23.8,232,SW,1008.0,29.78,0.0,0.0,49,63,35.7,96.3,10.0,6.0,7.0,17.0,27.3,360.5,29.0,0.5,0.4,29.7,174.7,2,3,05:35 AM,06:14 PM,01:36 PM,12:01 AM,Waxing Gibbous,63
Romania,Bucharest,44.43,26.1,Europe,1725885000,2024-09-09,29.2,84.6,Sunny,8.1,13.0,130,SE,1011.0,29.85,0.0,0.0,27,0,27.1,80.7,10.0,6.0,7.0,10.3,16.6,325.6,90.0,4.625,4.44,18.13,32.745,2,2,06:48 AM,07:37 PM,01:12 PM,10:02 PM,Waxing Crescent,28
Norway,Oslo,59.92,10.75,Europe,1721479500,2024-07-20,16.2,61.2,Sunny,40.5,65.2,150,SSE,1007.0,29.74,0.0,0.0,88,0,16.2,61.2,10.0,6.0,6.0,45.0,72.4,155.2,93.0,3.6,2.4,3.4,3.8,1,1,04:32 AM,10:13 PM,10:58 PM,01:30 AM,Waxing Gibbous,97
Tanzania,Dodoma,-6.18,35.75,Africa,1717682400,2024-06-06,29.0,84.2,Partly cloudy,8.1,13.0,110,ESE,1018.0,30.06,0.0,0.0,35,25,28.2,82.8,10.0,6.0,8.0,12.5,20.2,230.3,48.6,0.3,0.2,3.3,5.5,1,1,06:42 AM,06:29 PM,06:24 AM,06:27 PM,New Moon,0
Burundi,Bujumbura,-3.38,29.36,Africa,1723378500,2024-08-11,29.8,85.6,Sunny,8.9,14.4,193,SSW,1009.0,29.81,0.0,0.0,40,5,29.8,85.6,10.0,6.0,8.0,10.3,16.6,390.5,94.4,0.8,0.4,19.9,23.3,2,2,06:08 AM,06:07 PM,10:46 AM,11:15 PM,Waxing Crescent,34
North Korea,Pyongyang,39.02,125.75,Asia,1715961600,2024-05-18,13.9,57.0,Clear,6.3,10.1,142,SE,1016.0,29.99,0.0,0.0,83,0,13.3,55.9,10.0,6.0,1.0,11.2,18.0,427.3,89.4,19.5,54.8,39.7,61.3,2,4,05:23 AM,07:45 PM,01:40 PM,02:21 AM,Waxing Gibbous,64
Cameroon,Bafoussam,5.47,10.42,Africa,1717251300,2024-06-01,24.3,75.8,Patchy rain nearby,4.3,6.8,107,ESE,1013.0,29.92,0.11,0.0,69,80,25.9,78.7,10.0,6.0,5.0,5.9,9.5,310.4,7.9,0.1,0.0,0.8,2.8,1,1,06:04 AM,06:29 PM,01:36 AM,01:58 PM,Waning Crescent,35
Lesotho,Maseru,-29.32,27.48,Africa,1723810500,2024-08-16,19.4,66.9,Sunny,8.1,13.0,50,NE,1028.0,30.36,0.0,0.0,15,0,19.4,66.9,10.0,6.0,7.0,8.2,13.2,212.0,75.8,1.5,0.6,9.3,16.2,1,1,06:41 AM,05:48 PM,02:06 PM,04:01 AM,Waxing Gibbous,82
Mauritius,Port Louis,-20.16,57.5,Indian,1719150300,2024-06-23,24.2,75.6,Partly cloudy,15.0,24.1,110,ESE,1019.0,30.09,0.07,0.0,74,50,25.9,78.5,10.0,6.0,6.0,22.2,35.8,230.3,60.1,1.4,1.2,1.7,5.0,1,1,06:45 AM,05:40 PM,07:02 PM,08:00 AM,Waning Gibbous,99
Senegal,Dakar,14.67,-17.44,Africa,1721997000,2024-07-26,26.4,79.6,Partly Cloudy,7.6,12.2,274,W,1015.0,29.96,0.0,0.0,81,30,29.4,84.8,10.0,6.0,7.0,10.3,16.6,227.0,42.6,0.7,0.5,0.5,1.3,1,1,06:52 AM,07:41 PM,11:52 PM,11:42 AM,Waning Gibbous,74
Comoros,Moroni,-11.7,43.24,Indian,1725885000,2024-09-09,24.7,76.4,Patchy rain nearby,8.9,14.4,213,SSW,1017.0,30.02,0.05,0.0,81,88,26.8,80.2,10.0,6.0,6.0,10.3,16.6,160.95,59.0,0.37,0.74,8.695,15.355,1,1,06:05 AM,06:03 PM,09:58 AM,11:04 PM,Waxing Crescent,28
Poland,Warsaw,52.25,21.0,Europe,1722170700,2024-07-28,19.1,66.5,Patchy rain nearby,21.9,35.3,299,WNW,1015.0,29.97,0.01,0.0,66,100,19.1,66.5,10.0,6.0,4.0,25.2,40.6,200.3,72.2,1.1,0.3,5.6,5.7,1,1,04:51 AM,08:33 PM,11:10 PM,02:16 PM,Last Quarter,51
Andorra,Andorra La Vella,42.5,1.52,Europe,1724328000,2024-08-22,26.0,78.7,Sunny,5.1,8.3,207,SSW,1015.0,29.97,0.0,0.0,30,4,25.3,77.6,10.0,6.0,7.0,5.9,9.5,186.9,83.7,0.5,0.1,2.3,2.8,1,1,07:09 AM,08:44 PM,10:14 PM,10:17 AM,Waning Gibbous,93
Thailand,Nan,18.78,100.78,Asia,1724156100,2024-08-20,25.1,77.2,Partly cloudy,2.2,3.6,185,S,1007.0,29.74,0.0,0.0,100,75,28.4,83.2,10.0,6.0,1.0,6.7,10.8,377.2,17.0,3.5,1.7,8.8,9.3,1,1,06:00 AM,06:40 PM,07:19 PM,06:15 AM,Waning Gibbous,100
Cameroon,Ngaoundere,7.32,13.58,Africa,1723119300,2024-08-08,23.3,73.9,Light rain shower,4.5,7.2,220,SW,1012.0,29.89,1.3,0.05,79,70,25.3,77.5,10.0,6.0,5.0,7.6,12.2,287.1,24.0,0.2,0.0,0.5,0.5,1,1,05:59 AM,06:23 PM,08:55 AM,09:13 PM,Waxing Crescent,11
Malta,Valletta,35.9,14.51,Europe,1722255300,2024-07-29,28.2,82.7,Sunny,9.2,14.8,282,WNW,1014.0,29.95,0.0,0.0,65,0,30.6,87.1,10.0,6.0,7.0,11.3,18.2,220.3,94.4,2.1,0.6,22.1,30.6,2,2,06:07 AM,08:09 PM,12:27 AM,03:09 PM,Waning Crescent,40
El Salvador,San Salvador,13.71,-89.2,America,1725451200,2024-09-04,21.5,70.7,Light rain,2.5,4.0,336,NNW,1012.0,29.88,1.15,0.05,98,78,21.5,70.7,9.0,5.0,5.0,4.2,6.7,614.2,9.3,8.1,6.5,54.8,60.8,3,7,05:46 AM,06:05 PM,06:55 AM,07:13 PM,Waxing Crescent,1
Djibouti,Djibouti,11.6,43.15,Africa,1722774600,2024-08-04,35.5,95.9,Partly Cloudy,9.6,15.5,270,W,1003.0,29.62,0.0,0.0,47,35,41.2,106.1,10.0,6.0,9.0,15.8,25.4,514.0,39.0,0.1,0.0,3.2,7.2,1,1,05:56 AM,06:31 PM,05:43 AM,06:44 PM,New Moon,0
Bulgaria,Sofia,42.68,23.32,Europe,1716820200,2024-05-27,22.0,71.6,Partly cloudy,16.1,25.9,50,NE,1018.0,30.06,0.0,0.0,43,50,24.3,75.7,10.0,6.0,5.0,20.6,33.1,176.9,100.1,0.8,1.1,2.3,2.7,1,1,05:54 AM,08:54 PM,12:17 AM,08:50 AM,Waning Gibbous,87
Algeria,Algiers,36.76,3.05,Africa,1726656300,2024-09-18,25.0,77.0,Partly cloudy,13.0,20.9,69,ENE,1014.0,29.94,0.0,0.0,51,50,26.1,78.9,10.0,6.0,6.0,15.0,24.2,333.0,76.0,22.755,14.06,12.765,18.5,1,2,06:32 AM,06:50 PM,07:10 PM,06:44 AM,Full Moon,100
Spain,Madrid,40.4,-3.68,Europe,1720098900,2024-07-04,35.1,95.2,Sunny,2.2,3.6,208,SSW,1016.0,30.0,0.0,0.0,20,0,33.3,91.9,10.0,6.0,9.0,6.7,10.8,183.6,151.6,3.5,0.2,3.3,4.1,1,1,06:50 AM,09:48 PM,04:53 AM,09:06 PM,Waning Crescent,5
Micronesia,Palikir,6.92,158.15,Pacific,1718373600,2024-06-15,24.5,76.1,Heavy rain,5.6,9.0,207,SSW,1009.0,29.81,7.68,0.3,92,84,27.1,80.8,5.0,3.0,1.0,7.7,12.4,267.0,5.3,0.0,0.0,0.5,0.8,1,1,06:12 AM,06:43 PM,12:26 PM,12:12 AM,First Quarter,48
Colombia,Bogota,4.6,-74.08,America,1719321300,2024-06-25,13.5,56.3,Patchy rain nearby,2.9,4.7,117,ESE,1019.0,30.1,0.02,0.0,80,69,13.8,56.8,10.0,6.0,3.0,3.4,5.4,660.9,2.6,14.9,4.7,13.6,15.7,1,2,05:48 AM,06:11 PM,09:49 PM,09:10 AM,Waning Gibbous,89
Angola,Luanda,-8.84,13.23,Africa,1718373600,2024-06-14,25.7,78.3,Sunny,15.4,24.8,240,WSW,1010.0,29.82,0.0,0.0,72,0,27.6,81.6,10.0,6.0,8.0,20.9,33.6,988.0,177.4,12.0,7.5,81.0,180.9,4,10,06:19 AM,05:56 PM,12:26 PM,12:00 AM,First Quarter,48
Uruguay,Montevideo,-34.86,-56.17,America,1716128100,2024-05-19,11.0,51.8,Overcast,6.9,11.2,240,WSW,1026.0,30.3,0.03,0.0,87,100,10.2,50.4,10.0,6.0,4.0,11.4,18.4,1028.1,8.2,20.6,17.2,19.9,31.0,2,2,07:36 AM,05:47 PM,03:35 PM,03:42 AM,Waxing Gibbous,81
Ecuador,Quito,-0.22,-78.5,America,1725451200,2024-09-04,10.6,51.0,Sunny,3.6,5.8,128,SE,1018.0,30.06,0.0,0.0,60,5,10.2,50.3,10.0,6.0,5.0,5.3,8.6,1655.6,1.9,46.6,44.8,20.1,23.6,2,2,06:09 AM,06:16 PM,07:12 AM,07:31 PM,Waxing Crescent,1
Poland,Warsaw,52.25,21.0,Europe,1718287200,2024-06-13,17.2,63.0,Sunny,8.1,13.0,170,S,1016.0,30.0,0.0,0.0,48,0,17.2,63.0,10.0,6.0,5.0,10.2,16.3,188.6,95.8,2.7,1.3,3.0,3.7,1,1,04:14 AM,08:58 PM,11:27 AM,12:51 AM,Waxing Crescent,38
Eritrea,Asmara,15.33,38.93,Africa,1721220300,2024-07-17,23.2,73.7,Patchy rain nearby,5.6,9.0,4,N,1011.0,29.85,0.6,0.02,52,73,24.8,76.7,9.0,5.0,5.0,9.2,14.9,220.3,40.1,0.1,0.1,11.8,47.7,1,1,06:02 AM,06:58 PM,03:24 PM,01:57 AM,Waxing Gibbous,78
Lesotho,Maseru,-29.32,27.48,Africa,1716387300,2024-05-22,24.7,76.5,Sunny,4.0,6.5,327,NNW,1019.0,30.1,0.0,0.0,14,0,23.6,74.5,10.0,6.0,7.0,4.6,7.5,277.0,65.8,2.5,2.4,14.0,19.5,1,2,06:51 AM,05:23 PM,04:27 PM,05:39 AM,Waxing Gibbous,97
Syria,Damascus,33.5,36.3,Asia,1723465800,2024-08-12,35.5,95.9,Sunny,18.3,29.5,300,WNW,1003.0,29.61,0.0,0.0,17,4,33.8,92.9,10.0,6.0,9.0,21.1,33.9,205.3,138.8,2.1,4.1,8.6,11.7,1,1,05:55 AM,07:24 PM,01:04 PM,11:23 PM,First Quarter,44
Lithuania,Vilnius,54.68,25.32,Europe,1721220300,2024-07-17,27.3,81.1,Partly cloudy,10.5,16.9,250,WSW,1017.0,30.03,0.0,0.0,54,50,27.2,81.0,10.0,6.0,7.0,12.1,19.5,191.9,90.8,1.1,0.4,2.2,2.3,1,1,05:05 AM,09:44 PM,06:49 PM,12:45 AM,Waxing Gibbous,78
Mauritius,Port Louis,-20.16,57.5,Indian,1718632800,2024-06-17,21.8,71.2,Partly Cloudy,3.8,6.1,160,SSE,1018.0,30.07,0.0,0.0,73,26,21.8,71.2,10.0,6.0,1.0,5.8,9.4,240.3,58.7,1.5,0.9,2.3,9.4,1,1,06:43 AM,05:39 PM,02:01 PM,02:17 AM,Waxing Gibbous,75
Pakistan,Islamabad,33.7,73.17,Asia,1721479500,2024-07-20,39.1,102.4,Sunny,7.4,11.9,258,WSW,995.0,29.4,0.0,0.0,29,4,41.7,107.1,10.0,6.0,9.0,8.5,13.7,1108.2,153.1,38.7,4.0,33.8,40.5,2,3,05:11 AM,07:16 PM,06:50 PM,03:27 AM,Waxing Gibbous,97
Tunisia,Tunis,36.8,10.18,Africa,1725020100,2024-08-30,33.4,92.1,Partly cloudy,9.4,15.1,40,NE,1014.0,29.94,0.0,0.0,53,25,35.0,94.9,10.0,6.0,8.0,13.9,22.4,260.4,110.2,0.8,3.5,50.9,54.3,3,6,05:49 AM,06:50 PM,01:53 AM,05:14 PM,Waning Crescent,15
Bahrain,Manama,26.24,50.58,Asia,1722688200,2024-08-03,35.0,95.1,Sunny,17.0,27.4,342,NNW,996.0,29.42,0.0,0.0,54,17,42.6,108.7,10.0,6.0,9.0,31.3,50.3,198.6,200.3,3.5,23.4,41.9,107.1,3,4,05:04 AM,06:23 PM,03:44 AM,05:59 PM,Waning Crescent,2
Peru,Lima,-12.05,-77.05,America,1720271700,2024-07-06,16.9,62.5,Sunny,5.1,8.3,170,S,1016.0,30.01,0.0,0.0,82,15,16.9,62.5,10.0,6.0,6.0,6.2,9.9,634.2,20.6,40.4,24.8,32.8,45.5,2,3,06:30 AM,05:57 PM,07:10 AM,06:46 PM,Waxing Crescent,0
Gambia,Banjul,13.45,-16.58,Africa,1722083400,2024-07-27,27.9,82.2,Sunny,8.3,13.3,309,NW,1014.0,29.95,0.0,0.0,78,17,31.7,89.0,10.0,6.0,7.0,10.9,17.6,193.6,40.1,0.1,0.2,2.2,4.9,1,1,06:50 AM,07:36 PM,No moonrise,12:33 PM,Waning Gibbous,63
Sierra Leone,Freetown,8.49,-13.23,Africa,1718891100,2024-06-20,29.3,84.8,Partly Cloudy,3.6,5.8,107,ESE,1011.0,29.85,0.0,0.0,63,45,32.3,90.1,10.0,6.0,7.0,4.3,6.9,377.2,45.8,0.4,0.5,1.5,3.2,1,1,06:36 AM,07:13 PM,06:00 PM,04:56 AM,Waxing Gibbous,95
Albania,Tirana,41.33,19.82,Europe,1720529100,2024-07-09,33.3,91.9,Partly cloudy,12.5,20.2,340,NNW,1012.0,29.88,0.01,0.0,56,25,35.3,95.5,10.0,6.0,7.0,17.0,27.4,180.2,105.9,1.3,0.4,7.3,13.6,1,1,05:16 AM,08:15 PM,08:31 AM,10:40 PM,Waxing Crescent,9
Benin,Porto-Novo,6.48,2.62,Africa,1724242500,2024-08-21,28.2,82.8,Partly cloudy,13.6,22.0,220,SW,1015.0,29.97,0.01,0.0,74,50,30.3,86.6,10.0,6.0,6.0,18.1,29.2,487.3,60.8,0.7,1.1,4.0,8.6,1,1,06:44 AM,07:01 PM,08:42 PM,08:12 AM,Waning Gibbous,98
Albania,Tirana,41.33,19.82,Europe,1723206600,2024-08-09,33.4,92.1,Sunny,12.8,20.5,279,W,1012.0,29.89,0.0,0.0,35,6,34.1,93.4,10.0,6.0,8.0,14.7,23.6,217.0,110.2,1.0,1.0,6.2,7.0,1,1,05:44 AM,07:48 PM,10:25 AM,10:00 PM,Waxing Crescent,18
Sierra Leone,Freetown,8.49,-13.23,Africa,1724156100,2024-08-20,28.3,82.9,Partly cloudy,12.5,20.2,230,SW,1014.0,29.94,0.02,0.0,84,75,31.7,89.1,10.0,6.0,6.0,17.0,27.4,283.7,41.5,0.2,0.1,1.0,1.7,1,1,06:45 AM,07:07 PM,08:01 PM,07:21 AM,Waning Gibbous,100
Grenada,Saint George's,12.05,-61.75,America,1720271700,2024-07-06,30.2,86.4,Partly cloudy,12.5,20.2,100,E,1016.0,30.0,0.0,0.0,75,25,36.4,97.4,10.0,6.0,7.0,17.0,27.4,198.6,42.6,0.6,0.5,2.0,10.9,1,1,05:48 AM,06:36 PM,06:15 AM,07:31 PM,Waxing Crescent,0
Paraguay,Aurora,-23.43,-61.33,America,1722688200,2024-08-03,28.5,83.3,Sunny,13.0,20.9,22,NNE,1003.0,29.62,0.0,0.0,35,0,28.0,82.3,10.0,6.0,8.0,17.4,28.0,741.0,98.7,0.9,0.9,70.0,70.4,4,9,07:39 AM,06:44 PM,07:14 AM,06:05 PM,Waning Crescent,2
Spain,Madrid,40.4,-3.68,Europe,1724156100,2024-08-20,33.3,91.9,Sunny,3.8,6.1,60,ENE,1016.0,30.0,0.0,0.0,23,0,31.2,88.1,10.0,6.0,9.0,8.3,13.3,283.7,174.5,3.5,0.2,5.6,6.4,1,1,07:31 AM,09:05 PM,09:47 PM,08:03 AM,Waning Gibbous,100
Samoa,Apia,-13.83,-171.73,Pacific,1726570800,2024-09-18,25.1,77.2,Partly cloudy,2.2,3.6,169,S,1011.0,29.85,0.0,0.0,83,25,27.0,80.6,10.0,6.0,1.0,2.9,4.7,199.8,23.0,0.185,0.74,3.515,6.475,1,1,06:20 AM,06:23 PM,05:28 PM,05:23 AM,Waxing Gibbous,98
Samoa,Apia,-13.83,-171.73,Pacific,1720616400,2024-07-11,25.2,77.4,Partly cloudy,2.2,3.6,10,N,1011.0,29.85,0.09,0.0,94,75,27.1,80.8,10.0,6.0,1.0,27.4,44.1,220.3,59.4,0.3,0.2,2.5,9.8,1,1,06:52 AM,06:13 PM,09:54 AM,09:50 PM,Waxing Crescent,16
Slovenia,Ljubljana,46.06,14.51,Europe,1721048400,2024-07-15,31.9,89.4,Sunny,2.2,3.6,17,NNE,1013.0,29.91,0.0,0.0,33,13,31.5,88.7,10.0,6.0,8.0,6.7,10.8,181.9,118.7,1.1,1.0,5.1,6.2,1,1,05:26 AM,08:49 PM,03:17 PM,12:28 AM,Waxing Gibbous,60
Austria,Vienna,48.2,16.37,Europe,1726570800,2024-09-17,16.3,61.3,Partly cloudy,4.3,6.8,31,NNE,1023.0,30.21,0.0,0.0,72,25,16.3,61.3,10.0,6.0,4.0,4.9,7.9,384.8,60.0,9.065,0.925,7.77,10.545,1,1,06:34 AM,07:02 PM,06:56 PM,05:17 AM,Waxing Gibbous,98
Saint Vincent and the Grenadines,Kingstown,13.13,-61.22,America,1717424100,2024-06-03,30.0,86.0,Partly cloudy,18.6,29.9,120,ESE,1015.0,29.97,1.42,0.06,79,75,37.9,100.3,10.0,6.0,6.0,34.1,54.9,257.0,25.4,0.1,0.1,1.3,3.9,1,1,05:38 AM,06:29 PM,02:56 AM,03:50 PM,Waning Crescent,16
Iraq,Baghdad,33.34,44.39,Asia,1716302700,2024-05-21,35.1,95.2,Sunny,13.0,20.9,95,E,1003.0,29.62,0.0,0.0,19,2,33.3,91.9,10.0,6.0,9.0,18.0,28.9,310.4,161.7,10.7,8.1,26.3,79.1,2,3,04:58 AM,07:00 PM,05:07 PM,03:23 AM,Waxing Gibbous,93
Singapore,Singapore,1.29,103.86,Asia,1726230600,2024-09-13,29.3,84.7,Partly cloudy,9.2,14.8,156,SSE,1009.0,29.8,0.36,0.01,70,75,34.2,93.6,10.0,6.0,1.0,13.7,22.0,477.3,40.0,40.33,29.785,21.09,30.71,2,2,06:57 AM,07:04 PM,02:47 PM,02:11 AM,Waxing Gibbous,68
Venezuela,Caracas,10.5,-66.92,America,1717856100,2024-06-08,27.2,81.0,Partly cloudy,6.9,11.2,110,ESE,1015.0,29.97,0.0,0.0,94,50,28.5,83.3,10.0,6.0,7.0,11.4,18.4,357.2,12.3,20.4,35.8,6.2,6.4,1,1,06:05 AM,06:49 PM,07:55 AM,09:08 PM,Waxing Crescent,3
Kenya,Nairobi,-1.28,36.82,Africa,1715868000,2024-05-16,25.0,77.0,Partly cloudy,6.9,11.2,200,SSW,1020.0,30.12,0.95,0.04,54,75,27.0,80.7,10.0,6.0,6.0,8.5,13.6,881.2,91.6,7.1,8.8,18.2,40.2,2,2,06:27 AM,06:31 PM,01:34 PM,01:09 AM,Waxing Gibbous,55
Serbia,Belgrade,44.8,20.47,Europe,1724156100,2024-08-20,28.3,82.9,Sunny,9.4,15.1,140,SE,1011.0,29.85,0.0,0.0,48,0,27.2,81.0,10.0,6.0,8.0,13.9,22.3,217.0,103.0,0.8,0.6,3.8,4.2,1,1,05:47 AM,07:36 PM,08:14 PM,06:13 AM,Waning Gibbous,100
Uganda,Kampala,0.32,32.57,Africa,1718545500,2024-06-16,23.0,73.4,Partly cloudy,6.9,11.2,250,WSW,1015.0,29.97,0.0,0.0,83,25,24.9,76.7,10.0,6.0,7.0,11.6,18.6,273.7,43.3,0.3,0.2,5.2,7.5,1,1,06:46 AM,06:55 PM,02:24 PM,02:02 AM,Waxing Gibbous,67
Uruguay,Montevideo,-34.86,-56.17,America,1716472800,2024-05-23,14.0,57.2,Overcast,12.5,20.2,130,SE,1017.0,30.03,0.0,0.0,72,100,12.0,53.5,10.0,6.0,4.0,24.5,39.4,290.4,43.3,4.2,5.7,1.9,5.3,1,1,07:38 AM,05:45 PM,05:36 PM,07:43 AM,Full Moon,100
Lesotho,Maseru,-29.32,27.48,Africa,1718201700,2024-06-12,15.3,59.5,Sunny,2.2,3.6,10,N,1027.0,30.33,0.0,0.0,33,0,15.3,59.5,10.0,6.0,5.0,7.0,11.2,247.0,47.2,2.0,1.7,8.1,10.9,1,1,07:01 AM,05:19 PM,11:39 AM,10:58 PM,Waxing Crescent,29
Uzbekistan,Tashkent,41.32,69.25,Asia,1721220300,2024-07-17,34.3,93.7,Sunny,11.9,19.1,210,SSW,1005.0,29.68,0.0,0.0,23,0,32.3,90.2,10.0,6.0,9.0,12.1,19.5,165.2,89.4,1.6,0.4,4.7,22.0,1,1,05:05 AM,07:54 PM,04:29 PM,12:49 AM,Waxing Gibbous,78
Trinidad and Tobago,Port Of Spain,10.65,-61.52,America,1723379400,2024-08-11,26.1,78.9,Patchy rain nearby,5.4,8.6,72,ENE,1015.0,29.97,0.01,0.0,83,85,28.9,84.1,10.0,6.0,6.0,7.9,12.8,223.6,24.0,2.1,1.3,1.1,2.6,1,1,05:56 AM,06:26 PM,11:18 AM,11:10 PM,Waxing Crescent,34
Bahamas,Nassau,25.08,-77.35,America,1725624900,2024-09-06,29.0,84.2,Partly cloudy,4.3,6.8,90,E,1015.0,29.97,0.0,0.0,79,75,33.6,92.5,10.0,6.0,7.0,15.1,24.4,203.5,41.0,0.925,2.59,11.655,20.905,1,1,06:52 AM,07:23 PM,09:45 AM,09:20 PM,Waxing Crescent,7
Guinea,Conakry,9.51,-13.71,Africa,1717768800,2024-06-07,30.3,86.5,Partly cloudy,11.9,19.1,190,S,1014.0,29.94,0.0,0.0,70,25,36.8,98.3,10.0,6.0,7.0,16.3,26.3,297.1,44.0,0.3,0.1,0.9,7.6,1,1,06:34 AM,07:14 PM,07:16 AM,08:28 PM,Waxing Crescent,0
Monaco,Monaco,43.73,7.42,Europe,1719754200,2024-06-30,27.4,81.3,Partly cloudy,19.2,31.0,210,SSW,1011.0,29.85,0.01,0.0,62,25,30.9,87.5,10.0,6.0,5.0,23.7,38.2,170.2,94.4,0.9,0.8,3.8,5.3,1,1,05:52 AM,09:16 PM,01:42 AM,03:39 PM,Waning Crescent,38
Swaziland,Mbabane,-26.32,31.13,Africa,1717768800,2024-06-07,16.5,61.7,Sunny,8.9,14.4,117,ESE,1023.0,30.21,0.0,0.0,29,2,16.5,61.7,10.0,6.0,6.0,11.6,18.6,230.3,60.1,0.8,1.8,5.4,10.6,1,1,06:38 AM,05:11 PM,07:35 AM,05:55 PM,Waxing Crescent,0
Vietnam,Hanoi,21.03,105.85,Asia,1726143300,2024-09-12,28.3,82.9,Moderate or heavy rain with thunder,9.4,15.1,70,ENE,1006.0,29.71,0.31,0.01,89,75,33.7,92.7,10.0,6.0,1.0,13.9,22.3,741.85,145.0,15.355,47.915,59.015,85.285,3,8,05:43 AM,06:02 PM,01:28 PM,No moonset,Waxing Gibbous,58
South Korea,Seoul,37.57,127.0,Asia,1717510500,2024-06-04,18.0,64.4,Clear,2.5,4.0,260,W,1018.0,30.06,0.0,0.0,73,0,18.0,64.4,10.0,6.0,1.0,3.2,5.2,487.3,0.8,89.1,18.6,11.6,14.6,1,1,05:12 AM,07:50 PM,03:09 AM,05:30 PM,Waning Crescent,8
Solomon Islands,Honiara,-9.43,159.95,Pacific,1724070600,2024-08-19,25.5,77.9,Patchy rain nearby,6.9,11.2,126,SE,1014.0,29.94,0.04,0.0,88,71,28.4,83.2,10.0,6.0,1.0,10.1,16.2,208.6,32.2,0.6,0.3,1.1,1.3,1,1,06:29 AM,06:19 PM,05:51 PM,05:50 AM,Full Moon,99
Barbados,Bridgetown,13.1,-59.62,America,1716561000,2024-05-24,30.0,86.0,Partly cloudy,18.6,29.9,90,E,1013.0,29.91,0.0,0.0,70,25,34.5,94.1,10.0,6.0,7.0,23.0,37.1,201.9,42.6,1.5,2.6,1.8,8.4,1,1,05:32 AM,06:19 PM,07:35 PM,06:08 AM,Waning Gibbous,100
Belgium,'S Gravenjansdijk,51.25,3.63,Europe,1720701900,2024-07-11,20.1,68.2,Partly cloudy,11.9,19.1,290,WNW,1017.0,30.03,0.0,0.0,64,75,20.1,68.2,10.0,6.0,6.0,16.3,26.3,156.9,100.1,2.1,1.8,2.8,3.6,1,1,05:43 AM,09:58 PM,11:37 AM,12:16 AM,Waxing Crescent,23
United States of America,Washington Harbor,48.08,-123.04,America,1720789200,2024-07-12,11.5,52.7,Sunny,4.3,6.8,240,WSW,1020.0,30.11,0.0,0.0,98,0,11.4,52.4,16.0,9.0,3.0,7.0,11.3,148.5,34.0,3.9,1.6,3.3,8.5,1,1,05:26 AM,09:10 PM,12:34 PM,No moonset,Waxing Crescent,32
France,Paris,48.87,2.33,Europe,1720789200,2024-07-12,17.0,62.6,Partly cloudy,9.4,15.1,300,WNW,1015.0,29.97,0.07,0.0,77,75,17.0,62.6,10.0,6.0,4.0,10.0,16.2,161.9,84.4,2.3,0.3,0.8,1.0,1,1,06:01 AM,09:52 PM,12:50 PM,12:31 AM,Waxing Crescent,32
Angola,Luanda,-8.84,13.23,Africa,1718287200,2024-06-13,27.2,81.0,Partly cloudy,13.6,22.0,270,W,1010.0,29.83,0.0,0.0,70,25,29.5,85.2,10.0,6.0,8.0,22.1,35.5,534.1,63.7,12.2,4.8,35.7,68.6,2,3,06:19 AM,05:56 PM,11:51 AM,No moonset,Waxing Crescent,38
Palau,Koror,7.33,134.48,Pacific,1722428100,2024-07-31,28.8,83.8,Patchy rain nearby,10.1,16.2,257,WSW,1012.0,29.87,0.14,0.01,75,75,33.1,91.6,10.0,6.0,1.0,14.2,22.8,233.7,13.2,0.1,0.1,0.8,1.8,1,1,05:55 AM,06:21 PM,01:47 AM,02:46 PM,Waning Crescent,20
Micronesia,Palikir,6.92,158.15,Pacific,1718201700,2024-06-13,28.1,82.6,Overcast,6.9,11.2,60,ENE,1011.0,29.84,0.02,0.0,94,100,32.9,91.2,24.0,14.0,1.0,23.6,38.0,183.6,14.5,0.0,0.1,2.7,5.7,1,1,06:12 AM,06:43 PM,10:59 AM,11:35 PM,Waxing Crescent,29
Iraq,Baghdad,33.34,44.39,Asia,1717424100,2024-06-03,42.0,107.6,Sunny,8.1,13.0,290,WNW,1003.0,29.62,0.0,0.0,11,0,43.0,109.3,10.0,6.0,10.0,22.8,36.7,253.7,234.6,5.6,12.5,15.6,23.3,2,2,04:53 AM,07:08 PM,02:21 AM,03:56 PM,Waning Crescent,16
Croatia,Zagreb,45.8,16.0,Europe,1724674500,2024-08-26,29.1,84.4,Sunny,2.2,3.6,50,NE,1016.0,30.0,0.0,0.0,48,0,28.5,83.3,10.0,6.0,8.0,7.2,11.6,240.3,115.9,2.1,0.8,7.1,7.8,1,1,06:10 AM,07:45 PM,11:02 PM,02:43 PM,Last Quarter,54
Papua New Guinea,Port Moresby,-9.46,147.19,Pacific,1726485300,2024-09-16,24.1,75.3,Light rain shower,8.9,14.4,119,ESE,1011.0,29.85,1.26,0.05,94,74,26.7,80.0,10.0,6.0,1.0,12.9,20.7,231.25,39.0,0.37,0.37,15.725,27.75,2,2,06:04 AM,06:08 PM,04:24 PM,04:19 AM,Waxing Gibbous,93
Dominica,Roseau,15.3,-61.4,America,1720271700,2024-07-06,30.2,86.4,Partly cloudy,3.8,6.1,180,S,1016.0,30.0,0.13,0.01,59,50,37.6,99.7,10.0,6.0,6.0,21.5,34.6,178.6,29.3,0.9,0.2,2.0,5.3,1,1,05:41 AM,06:40 PM,06:07 AM,07:37 PM,Waxing Crescent,0
Equatorial Guinea,Malabo,3.75,8.78,Africa,1723119300,2024-08-08,25.3,77.5,Patchy rain nearby,4.5,7.2,246,WSW,1013.0,29.93,0.14,0.01,81,73,27.6,81.6,10.0,6.0,6.0,5.1,8.3,357.2,60.8,0.0,0.1,1.6,4.9,1,1,06:22 AM,06:38 PM,09:15 AM,09:33 PM,Waxing Crescent,11
Hungary,Budapest,47.5,19.08,Europe,1726230600,2024-09-13,17.2,63.0,Moderate rain,9.8,15.8,257,WSW,1002.0,29.59,2.88,0.11,94,100,17.2,63.0,8.0,4.0,3.0,11.3,18.2,353.35,61.0,21.83,0.925,12.21,14.985,1,2,06:19 AM,06:59 PM,04:58 PM,No moonset,Waxing Gibbous,68
Spain,Madrid,40.4,-3.68,Europe,1722255300,2024-07-29,35.8,96.5,Sunny,2.9,4.7,135,SE,1014.0,29.94,0.0,0.0,21,9,34.3,93.8,10.0,6.0,9.0,3.4,5.4,193.6,98.7,3.3,0.2,10.0,29.2,1,1,07:10 AM,09:32 PM,01:31 AM,04:39 PM,Waning Crescent,40
Burundi,Bujumbura,-3.38,29.36,Africa,1723896900,2024-08-17,31.2,88.2,Partly cloudy,18.6,29.9,280,W,1014.0,29.94,0.0,0.0,33,25,32.1,89.8,9.0,5.0,7.0,23.0,37.1,313.8,55.1,0.5,0.2,6.2,8.0,1,1,06:06 AM,06:07 PM,04:04 PM,03:47 AM,Waxing Gibbous,90
Suriname,Paramaribo,5.83,-55.17,America,1723032000,2024-08-07,27.2,80.9,Patchy rain nearby,5.1,8.3,117,ESE,1012.0,29.89,0.04,0.0,77,85,30.2,86.4,10.0,6.0,6.0,6.4,10.3,191.9,27.2,1.5,2.0,4.1,11.4,1,1,06:36 AM,06:57 PM,08:56 AM,09:18 PM,Waxing Crescent,6
Saudi Arabia,Riyadh,24.64,46.77,Asia,1725365700,2024-09-03,40.4,104.8,Sunny,15.9,25.6,351,N,1004.0,29.64,0.0,0.0,11,0,40.5,105.0,10.0,6.0,10.0,18.3,29.4,195.3,121.6,3.9,10.4,9.4,30.5,1,1,05:35 AM,06:09 PM,05:41 AM,06:29 PM,Waxing Crescent,0
Grenada,Saint George's,12.05,-61.75,America,1724070600,2024-08-19,30.1,86.2,Overcast,3.8,6.1,90,E,1015.0,29.97,0.01,0.0,79,25,35.9,96.5,10.0,6.0,6.0,15.5,25.0,203.6,32.2,1.5,1.2,0.7,2.5,1,1,05:56 AM,06:24 PM,06:37 PM,05:40 AM,Full Moon,99
Tajikistan,Dushanbe,38.56,68.77,Asia,1719150300,2024-06-23,30.1,86.2,Patchy light rain with thunder,13.6,22.0,60,ENE,1010.0,29.83,0.01,0.0,33,50,32.0,89.6,10.0,6.0,5.0,21.7,35.0,171.9,79.4,0.5,0.9,3.0,7.2,1,1,05:01 AM,07:53 PM,09:35 PM,05:45 AM,Waning Gibbous,99
Algeria,Algiers,36.76,3.05,Africa,1720357200,2024-07-07,29.1,84.4,Partly cloudy,9.4,15.1,50,NE,1013.0,29.91,0.0,0.0,55,25,31.0,87.8,10.0,6.0,7.0,10.6,17.0,207.0,137.3,6.2,2.3,8.4,17.2,1,1,05:36 AM,08:09 PM,06:43 AM,09:44 PM,Waxing Crescent,1
Montenegro,Podgorica,42.44,19.26,Europe,1716645600,2024-05-25,26.0,78.8,Partly cloudy,4.3,6.8,200,SSW,1012.0,29.88,0.11,0.0,58,25,27.1,80.7,10.0,6.0,5.0,8.7,14.0,171.9,97.3,0.5,0.3,1.9,2.0,1,1,05:13 AM,08:08 PM,10:39 PM,06:03 AM,Waning Gibbous,98
Thailand,Nan,18.78,100.78,Asia,1723206600,2024-08-09,25.9,78.6,Light rain shower,2.7,4.3,147,SSE,1005.0,29.67,0.79,0.03,91,71,29.5,85.1,10.0,6.0,1.0,5.6,9.1,243.7,62.9,1.7,5.9,16.5,17.5,2,2,05:57 AM,06:48 PM,09:41 AM,09:46 PM,Waxing Crescent,18
Lebanon,Beirut,33.87,35.51,Asia,1724156100,2024-08-20,31.1,88.0,Partly cloudy,8.1,13.0,260,W,1010.0,29.83,0.0,0.0,59,50,37.2,98.9,8.0,4.0,7.0,12.5,20.2,250.3,121.6,0.4,1.5,23.4,35.7,2,2,06:03 AM,07:19 PM,08:00 PM,06:28 AM,Waning Gibbous,100
Romania,Bucharest,44.43,26.1,Europe,1725279300,2024-09-02,32.2,90.0,Sunny,6.9,11.2,10,N,1013.0,29.91,0.0,0.0,34,0,30.7,87.2,10.0,6.0,8.0,9.5,15.3,247.0,104.4,1.0,0.9,7.7,15.6,1,1,06:40 AM,07:50 PM,05:41 AM,07:49 PM,New Moon,1
Costa Rica,San Ignacio,9.8,-84.17,America,1723378500,2024-08-11,15.9,60.5,Partly Cloudy,4.0,6.5,72,ENE,1016.0,29.99,0.0,0.0,92,27,15.9,60.5,10.0,6.0,5.0,8.2,13.2,257.0,0.5,3.7,4.0,4.9,6.4,1,1,05:28 AM,05:56 PM,10:50 AM,10:44 PM,Waxing Crescent,34
Bahamas,Nassau,25.08,-77.35,America,1718545500,2024-06-16,28.1,82.6,Partly cloudy,5.6,9.0,40,NE,1017.0,30.04,0.0,0.0,89,75,31.3,88.4,10.0,6.0,7.0,7.3,11.7,260.4,44.7,0.4,0.4,1.0,3.1,1,1,06:19 AM,08:01 PM,03:16 PM,02:20 AM,Waxing Gibbous,67
Andorra,Andorra La Vella,42.5,1.52,Europe,1717424100,2024-06-03,11.3,52.3,Light rain shower,2.9,4.7,60,ENE,1018.0,30.06,1.06,0.04,85,74,11.3,52.3,10.0,6.0,3.0,4.2,6.8,145.2,68.7,0.8,0.1,1.3,1.5,1,1,06:18 AM,09:27 PM,04:03 AM,06:13 PM,Waning Crescent,16
Portugal,Lisbon,38.72,-9.13,Europe,1719236700,2024-06-24,31.1,88.0,Sunny,12.5,20.2,340,NNW,1010.0,29.83,0.0,0.0,46,0,33.1,91.7,10.0,6.0,7.0,15.2,24.5,171.9,90.8,1.7,1.7,7.7,16.8,1,1,06:13 AM,09:05 PM,11:38 PM,08:23 AM,Waning Gibbous,95
Sudan,Juba,12.15,24.45,Africa,1723293000,2024-08-10,30.4,86.8,Patchy rain nearby,8.3,13.3,352,N,1011.0,29.86,0.39,0.02,50,73,32.1,89.8,9.0,5.0,7.0,9.6,15.5,330.5,20.4,0.1,0.0,0.5,1.8,1,1,06:10 AM,06:44 PM,10:38 AM,10:36 PM,Waxing Crescent,26
United Arab Emirates,Abu Dhabi,24.47,54.37,Asia,1723810500,2024-08-16,38.1,100.6,Sunny,9.4,15.1,360,N,994.0,29.35,0.0,0.0,54,0,40.1,104.2,10.0,6.0,8.0,15.9,25.6,233.7,74.4,0.1,0.5,42.5,143.0,3,5,05:58 AM,06:55 PM,04:25 PM,01:56 AM,Waxing Gibbous,82
Saudi Arabia,Riyadh,24.64,46.77,Asia,1716216300,2024-05-20,39.0,102.2,Sunny,6.9,11.2,220,SW,1009.0,29.8,0.0,0.0,7,0,38.5,101.2,10.0,6.0,9.0,11.4,18.4,257.0,138.8,25.7,36.7,30.1,109.4,2,3,05:07 AM,06:32 PM,03:50 PM,02:54 AM,Waxing Gibbous,88
Marshall Islands,Majuro,7.1,171.38,Pacific,1720357200,2024-07-08,29.4,84.9,Overcast,4.3,6.8,80,E,1009.0,29.8,0.04,0.0,79,100,35.3,95.6,24.0,14.0,1.0,15.8,25.4,153.5,41.5,0.0,0.1,2.2,11.4,1,1,06:24 AM,06:55 PM,07:14 AM,08:06 PM,Waxing Crescent,1
Ghana,Accra,5.55,-0.22,Africa,1722255300,2024-07-29,25.8,78.5,Patchy rain nearby,11.9,19.1,225,SW,1015.0,29.97,0.02,0.0,71,95,27.6,81.8,10.0,6.0,6.0,16.4,26.5,413.9,50.1,2.3,3.3,4.6,8.9,1,1,05:56 AM,06:18 PM,12:23 AM,01:07 PM,Waning Crescent,40
Rwanda,Kigali,-1.95,30.06,Africa,1721306700,2024-07-18,29.6,85.3,Sunny,4.3,6.8,220,SW,1011.0,29.84,0.0,0.0,26,5,28.1,82.5,10.0,6.0,8.0,4.9,7.9,413.9,88.7,0.7,0.8,21.3,24.2,2,2,06:05 AM,06:07 PM,03:21 PM,03:00 AM,Waxing Gibbous,86
Pakistan,Islamabad,33.7,73.17,Asia,1726829100,2024-09-20,33.6,92.5,Sunny,4.0,6.5,151,SSE,1005.0,29.67,0.0,0.0,36,0,34.6,94.3,10.0,6.0,8.0,4.6,7.5,1480.0,139.0,47.73,23.495,68.45,111.185,4,9,05:54 AM,06:07 PM,07:29 PM,08:16 AM,Waning Gibbous,95
Gabon,Libreville,0.38,9.45,Africa,1720962900,2024-07-14,28.2,82.8,Partly cloudy,6.9,11.2,240,WSW,1014.0,29.94,0.0,0.0,70,25,31.3,88.4,10.0,6.0,7.0,12.6,20.3,474.0,73.0,2.1,3.3,7.5,12.5,1,1,06:24 AM,06:32 PM,12:35 PM,12:12 AM,Waxing Gibbous,50
Cuba,Havana,23.13,-82.36,America,1722600900,2024-08-02,29.0,84.2,Partly Cloudy,9.8,15.8,75,ENE,1016.0,30.0,0.0,0.0,77,38,34.0,93.1,10.0,6.0,7.0,12.6,20.3,200.3,39.0,4.0,10.3,2.1,6.1,1,1,07:01 AM,08:10 PM,05:06 AM,07:15 PM,Waning Crescent,6
Djibouti,Djibouti,11.6,43.15,Africa,1724328000,2024-08-22,34.2,93.6,Sunny,2.5,4.0,271,W,1001.0,29.57,0.0,0.0,47,21,38.5,101.3,10.0,6.0,8.0,3.9,6.2,340.5,48.6,0.3,0.3,2.7,8.2,1,1,05:57 AM,06:23 PM,08:39 PM,08:18 AM,Waning Gibbous,93
Grenada,Saint George's,12.05,-61.75,America,1716561000,2024-05-24,28.7,83.7,Partly cloudy,13.6,22.0,150,SSE,1013.0,29.91,0.0,0.0,70,25,32.3,90.2,10.0,6.0,7.0,15.9,25.7,213.6,44.0,0.9,0.7,2.9,10.0,1,1,05:42 AM,06:26 PM,07:42 PM,06:19 AM,Waning Gibbous,100
Turkey,Ankara,39.93,32.86,Europe,1719150300,2024-06-23,34.0,93.2,Sunny,8.1,13.0,40,NE,1009.0,29.8,0.0,0.0,11,0,32.0,89.6,10.0,6.0,8.0,12.5,20.2,158.6,114.4,3.6,2.0,2.9,5.3,1,1,05:21 AM,08:21 PM,10:08 PM,06:09 AM,Waning Gibbous,99
Ecuador,Quito,-0.22,-78.5,America,1718891100,2024-06-20,12.5,54.5,Partly Cloudy,2.5,4.0,129,SE,1016.0,30.02,0.0,0.0,77,29,12.9,55.2,10.0,6.0,5.0,2.8,4.6,2349.9,3.2,55.5,54.8,30.1,33.7,2,3,06:12 AM,06:19 PM,05:13 PM,04:45 AM,Waxing Gibbous,95
Micronesia,Palikir,6.92,158.15,Pacific,1720789200,2024-07-13,28.4,83.1,Overcast,6.9,11.2,80,E,1007.0,29.73,0.98,0.04,84,100,33.3,91.9,24.0,14.0,1.0,20.6,33.2,156.9,24.0,0.0,0.0,0.7,1.7,1,1,06:18 AM,06:48 PM,11:04 AM,11:22 PM,Waxing Crescent,32
Mauritius,Port Louis,-20.16,57.5,Indian,1724070600,2024-08-19,21.5,70.8,Sunny,19.9,32.0,128,SE,1021.0,30.14,0.0,0.0,57,22,21.5,70.8,10.0,6.0,7.0,23.0,37.0,227.0,59.4,1.2,1.2,3.1,8.3,1,1,06:29 AM,05:59 PM,05:43 PM,06:11 AM,Full Moon,99
Cape Verde,Praia,14.93,-23.51,Atlantic,1725451200,2024-09-04,29.0,84.2,Partly cloudy,12.5,20.2,50,NE,1014.0,29.94,0.23,0.01,75,75,36.1,97.0,10.0,6.0,6.0,16.8,27.0,200.3,61.5,0.6,0.3,5.9,20.1,1,1,06:22 AM,06:43 PM,07:24 AM,07:44 PM,Waxing Crescent,1
Netherlands,Amsterdam,52.37,4.89,Europe,1725710400,2024-09-07,22.3,72.1,Partly cloudy,6.9,11.2,110,ESE,1011.0,29.85,0.0,0.0,73,25,24.5,76.2,10.0,6.0,6.0,11.4,18.4,438.45,76.0,29.785,1.85,24.975,28.86,2,3,07:02 AM,08:13 PM,11:48 AM,09:15 PM,Waxing Crescent,13
Portugal,Lisbon,38.72,-9.13,Europe,1721997000,2024-07-26,26.9,80.5,Sunny,19.9,32.0,343,NNW,1012.0,29.89,0.0,0.0,53,0,27.8,82.0,10.0,6.0,7.0,24.5,39.5,203.6,61.5,1.3,1.2,2.4,6.4,1,1,06:33 AM,08:53 PM,11:59 PM,12:18 PM,Waning Gibbous,74
Solomon Islands,Honiara,-9.43,159.95,Pacific,1716732900,2024-05-27,26.0,78.8,Partly cloudy,2.5,4.0,180,S,1010.0,29.83,0.04,0.0,94,75,29.3,84.7,10.0,6.0,1.0,11.7,18.8,212.0,13.1,1.5,0.5,0.5,0.7,1,1,06:28 AM,06:06 PM,08:27 PM,08:39 AM,Waning Gibbous,93
Equatorial Guinea,Malabo,3.75,8.78,Africa,1720011600,2024-07-03,30.2,86.4,Partly cloudy,4.3,6.8,290,WNW,1013.0,29.91,0.67,0.03,79,50,39.8,103.7,10.0,6.0,6.0,11.4,18.3,383.9,62.2,0.1,0.1,3.3,3.9,1,1,06:19 AM,06:39 PM,03:46 AM,04:29 PM,Waning Crescent,10
Finland,Helsinki,60.18,24.93,Europe,1722946500,2024-08-06,22.0,71.7,Partly Cloudy,4.0,6.5,127,SE,1012.0,29.9,0.0,0.0,54,27,24.5,76.1,10.0,6.0,6.0,4.9,7.9,213.6,84.4,11.1,5.1,6.2,10.1,1,1,05:13 AM,09:38 PM,07:13 AM,10:18 PM,Waxing Crescent,2
Chile,Santiago,-33.45,-70.67,America,1725279300,2024-09-02,9.1,48.4,Sunny,9.4,15.1,160,SSE,1020.0,30.12,0.0,0.0,62,0,9.3,48.7,10.0,6.0,5.0,13.9,22.3,3791.8,0.0,38.0,20.3,276.1,315.8,6,10,06:59 AM,06:26 PM,06:56 AM,06:11 PM,New Moon,1
Antigua and Barbuda,Saint John's,17.12,-61.85,America,1718028900,2024-06-10,31.3,88.3,Partly cloudy,10.5,16.9,100,E,1016.0,30.0,0.0,0.0,63,25,38.2,100.7,10.0,6.0,7.0,21.9,35.2,195.3,41.1,0.5,0.6,1.8,9.6,1,1,05:33 AM,06:41 PM,09:14 AM,10:33 PM,Waxing Crescent,13
Bahrain,Manama,26.24,50.58,Asia,1716732000,2024-05-26,36.0,96.8,Sunny,12.5,20.2,350,N,1003.0,29.62,0.0,0.0,25,0,38.0,100.4,10.0,6.0,8.0,29.1,46.9,243.7,107.3,0.1,1.7,31.3,80.2,2,3,04:46 AM,06:23 PM,09:27 PM,06:49 AM,Waning Gibbous,93
Barbados,Bridgetown,13.1,-59.62,America,1726317000,2024-09-14,31.4,88.5,Overcast,13.0,20.9,95,E,1014.0,29.94,0.0,0.0,75,50,39.1,102.4,10.0,6.0,7.0,16.4,26.4,329.184,52.0,1.431,1.968,10.019,18.248,1,1,05:48 AM,06:00 PM,03:27 PM,02:07 AM,Waxing Gibbous,78
Uzbekistan,Tashkent,41.32,69.25,Asia,1719926100,2024-07-02,30.3,86.5,Sunny,9.4,15.1,340,NNW,1007.0,29.74,0.0,0.0,17,0,28.1,82.5,10.0,6.0,8.0,10.9,17.5,171.9,75.1,3.6,0.9,4.3,22.6,1,1,04:54 AM,08:00 PM,01:28 AM,04:44 PM,Waning Crescent,18
Niger,Niamey,13.52,2.12,Africa,1716732900,2024-05-26,41.0,105.8,Sunny,9.4,15.1,230,SW,1009.0,29.8,0.0,0.0,19,0,41.7,107.1,10.0,6.0,10.0,13.9,22.3,313.8,51.5,0.4,0.5,17.0,63.7,2,2,06:23 AM,07:14 PM,10:16 PM,08:44 AM,Waning Gibbous,93
Bulgaria,Bogot,43.32,24.7,Europe,1720357200,2024-07-07,36.6,97.9,Sunny,10.1,16.2,85,E,1012.0,29.88,0.0,0.0,14,0,35.2,95.4,10.0,6.0,9.0,11.6,18.6,180.2,110.2,0.4,0.2,3.9,4.0,1,1,05:49 AM,09:04 PM,06:49 AM,10:35 PM,Waxing Crescent,1
Mauritius,Port Louis,-20.16,57.5,Indian,1721220300,2024-07-17,22.3,72.2,Sunny,17.0,27.4,95,E,1022.0,30.17,0.0,0.0,62,6,24.7,76.4,10.0,6.0,7.0,19.7,31.7,240.3,61.5,1.6,2.2,2.7,5.6,1,1,06:45 AM,05:48 PM,01:55 PM,02:47 AM,Waxing Gibbous,78
Iceland,Grindavik,63.83,-22.43,Atlantic,1717336800,2024-06-02,8.0,46.4,Partly cloudy,35.3,56.9,250,WSW,1003.0,29.62,0.01,0.0,57,75,2.6,36.7,10.0,6.0,2.0,44.0,70.8,195.3,88.0,0.1,1.5,2.0,11.3,1,1,03:27 AM,11:31 PM,02:53 AM,05:23 PM,Waning Crescent,25
Nigeria,Abuja,9.18,7.18,Africa,1720443600,2024-07-08,27.2,81.0,Partly cloudy,10.5,16.9,250,WSW,1015.0,29.97,0.04,0.0,79,75,30.3,86.5,10.0,6.0,6.0,15.0,24.1,620.8,37.6,0.7,0.1,5.4,6.1,1,1,06:17 AM,06:55 PM,08:24 AM,09:13 PM,Waxing Crescent,5
Cuba,Havana,23.13,-82.36,America,1717336800,2024-06-02,27.0,80.6,Partly cloudy,8.1,13.0,80,E,1016.0,30.0,0.0,0.0,74,25,28.3,82.9,9.0,5.0,8.0,13.4,21.5,223.6,103.0,3.2,13.8,5.9,13.3,1,1,06:43 AM,08:12 PM,03:35 AM,04:28 PM,Waning Crescent,25
Jordan,Amman,31.95,35.93,Asia,1723982400,2024-08-18,33.3,91.9,Sunny,10.5,16.9,270,W,1010.0,29.83,0.0,0.0,23,0,31.8,89.2,6.0,3.0,8.0,12.1,19.5,198.6,140.2,1.2,1.9,10.5,17.3,1,1,06:03 AM,07:17 PM,06:42 PM,04:04 AM,Waxing Gibbous,95
Canada,Ottawa,45.42,-75.7,America,1718891100,2024-06-20,25.3,77.6,Sunny,6.7,10.8,302,WNW,1024.0,30.24,0.0,0.0,75,12,27.4,81.3,10.0,6.0,7.0,8.7,14.0,230.3,44.7,1.3,0.2,4.5,4.7,1,1,05:14 AM,08:55 PM,08:14 PM,03:31 AM,Waxing Gibbous,95
Czech Republic,Prague,50.08,14.47,Europe,1718718300,2024-06-18,28.8,83.8,Sunny,4.7,7.6,168,SSE,1014.0,29.94,0.0,0.0,41,23,28.7,83.7,10.0,6.0,7.0,5.4,8.7,180.2,88.7,3.2,1.7,1.5,2.1,1,1,04:52 AM,09:15 PM,05:49 PM,02:14 AM,Waxing Gibbous,83
Ukraine,Kyiv,50.43,30.52,Europe,1723638600,2024-08-14,25.7,78.2,Sunny,6.5,10.4,352,N,1018.0,30.06,0.0,0.0,33,19,25.3,77.6,10.0,6.0,7.0,7.5,12.0,183.6,60.8,0.6,1.2,0.9,1.1,1,1,05:46 AM,08:18 PM,04:51 PM,11:51 PM,Waxing Gibbous,63
Liberia,Monrovia,6.31,-10.8,Africa,1725279300,2024-09-02,25.5,77.9,Patchy rain nearby,10.3,16.6,192,SSW,1015.0,29.96,0.15,0.01,80,100,27.7,81.9,10.0,6.0,6.0,13.6,21.9,307.1,54.4,0.1,0.2,1.8,6.7,1,1,06:36 AM,06:49 PM,06:07 AM,06:38 PM,New Moon,1
United States of America,Washington Harbor,48.08,-123.04,America,1718373600,2024-06-14,9.4,48.9,Partly Cloudy,3.6,5.8,122,ESE,1020.0,30.13,0.0,0.0,70,44,8.5,47.3,10.0,6.0,4.0,4.1,6.6,185.3,44.7,4.3,0.9,2.3,4.0,1,1,05:12 AM,09:14 PM,01:43 PM,01:39 AM,First Quarter,48
Malawi,Lilongwe,-13.98,33.78,Africa,1721220300,2024-07-17,25.1,77.2,Sunny,10.5,16.9,50,NE,1022.0,30.18,0.0,0.0,28,0,23.9,75.0,10.0,6.0,8.0,15.0,24.1,290.4,60.8,0.3,0.5,7.8,10.2,1,1,06:09 AM,05:33 PM,01:47 PM,02:13 AM,Waxing Gibbous,78
Guinea-Bissau,Bissau,11.85,-15.58,Africa,1725365700,2024-09-03,28.1,82.6,Partly cloudy,6.9,11.2,220,SW,1013.0,29.91,0.11,0.0,84,75,32.7,90.8,10.0,6.0,6.0,18.4,29.6,317.1,46.5,0.3,0.3,1.1,2.4,1,1,06:52 AM,07:11 PM,07:07 AM,07:38 PM,Waxing Crescent,0
Tonga,Nuku`Aloia,-21.13,-175.2,Pacific,1725624900,2024-09-07,21.4,70.5,Partly cloudy,9.4,15.1,130,SE,1019.0,30.09,0.21,0.01,83,75,21.4,70.5,10.0,6.0,1.0,27.3,43.9,114.827,69.0,0.117,0.586,4.335,8.319,1,1,06:46 AM,06:33 PM,08:19 AM,09:00 PM,Waxing Crescent,7
Seychelles Islands,Victoria,-4.62,55.45,Indian,1724242500,2024-08-21,28.2,82.8,Partly cloudy,18.6,29.9,120,ESE,1009.0,29.8,0.0,0.0,74,50,33.6,92.5,10.0,6.0,8.0,25.3,40.7,205.3,54.4,0.2,0.6,4.7,19.9,1,1,06:22 AM,06:21 PM,08:01 PM,07:38 AM,Waning Gibbous,98
Niger,Niamey,13.52,2.12,Africa,1722601800,2024-08-02,31.9,89.4,Cloudy,15.0,24.1,222,SW,1011.0,29.86,0.0,0.0,51,66,34.8,94.7,10.0,6.0,7.0,17.2,27.8,373.8,29.0,0.6,0.5,1.1,2.2,1,1,06:36 AM,07:19 PM,04:38 AM,06:03 PM,Waning Crescent,6
Comoros,Moroni,-11.7,43.24,Indian,1720616400,2024-07-10,25.1,77.2,Patchy rain nearby,17.0,27.4,177,S,1017.0,30.02,0.15,0.01,72,88,26.8,80.2,10.0,6.0,7.0,19.6,31.5,243.7,61.5,0.3,0.3,4.1,7.6,1,1,06:28 AM,05:57 PM,09:47 AM,09:50 PM,Waxing Crescent,16
Zambia,Lusaka,-15.42,28.28,Africa,1723724100,2024-08-15,30.5,86.8,Sunny,12.8,20.5,112,ESE,1014.0,29.94,0.0,0.0,10,0,28.2,82.8,10.0,6.0,9.0,14.7,23.6,674.3,108.7,1.6,2.4,17.7,21.2,2,2,06:23 AM,05:59 PM,01:40 PM,02:21 AM,Waxing Gibbous,73
Bolivia,National,-11.18,-67.08,America,1718545500,2024-06-16,28.0,82.4,Sunny,3.8,6.1,20,NNE,1014.0,29.95,0.0,0.0,54,13,29.1,84.4,10.0,6.0,8.0,4.6,7.5,158.6,2.2,0.0,0.0,0.5,0.5,1,1,06:45 AM,06:13 PM,02:05 PM,01:58 AM,Waxing Gibbous,67
Samoa,Apia,-13.83,-171.73,Pacific,1719408600,2024-06-27,23.1,73.6,Partly cloudy,4.3,6.8,110,ESE,1012.0,29.88,0.01,0.0,94,25,25.1,77.2,10.0,6.0,1.0,26.0,41.9,203.6,50.8,0.2,0.2,2.2,10.9,1,1,06:50 AM,06:09 PM,10:13 PM,10:18 AM,Waning Gibbous,81
Netherlands,Amsterdam,52.37,4.89,Europe,1725451200,2024-09-04,19.0,66.2,Light rain,10.5,16.9,280,W,1016.0,30.0,0.01,0.0,83,25,19.0,66.2,10.0,6.0,4.0,10.7,17.2,257.0,68.7,8.7,1.4,1.7,3.4,1,1,06:57 AM,08:20 PM,08:14 AM,08:47 PM,Waxing Crescent,1
Palau,Meyungs,7.35,134.45,Pacific,1716991200,2024-05-29,27.0,80.6,Partly cloudy,3.8,6.1,30,NNE,1012.0,29.87,0.0,0.0,84,75,30.2,86.3,23.0,14.0,1.0,13.6,21.9,176.9,15.4,0.2,0.2,0.5,1.1,1,1,05:44 AM,06:15 PM,11:33 PM,10:44 AM,Waning Gibbous,69
Singapore,Singapore,1.29,103.86,Asia,1724415300,2024-08-23,29.3,84.7,Partly cloudy,2.5,4.0,10,N,1011.0,29.85,0.0,0.0,66,50,34.0,93.1,10.0,6.0,1.0,12.3,19.9,1401.9,0.0,35.6,56.7,17.2,19.5,2,2,07:03 AM,07:12 PM,10:22 PM,09:57 AM,Waning Gibbous,85
Algeria,Algiers,36.76,3.05,Africa,1726230600,2024-09-13,27.2,81.0,Partly cloudy,18.6,29.9,60,ENE,1018.0,30.06,0.0,0.0,62,50,29.4,85.0,10.0,6.0,5.0,22.7,36.5,284.9,89.0,17.02,9.805,12.395,23.125,1,2,06:28 AM,06:58 PM,04:17 PM,12:35 AM,Waxing Gibbous,68
Madagascar,Ivory,-24.37,46.45,Indian,1718719200,2024-06-18,23.5,74.3,Sunny,5.4,8.6,93,E,1017.0,30.04,0.0,0.0,51,5,25.0,76.9,10.0,6.0,7.0,10.0,16.1,208.6,41.1,0.2,0.0,0.5,0.9,1,1,06:36 AM,05:14 PM,02:16 PM,03:00 AM,Waxing Gibbous,83
Haiti,Port-Au-Prince,18.54,-72.34,America,1720529100,2024-07-09,29.0,84.2,Partly cloudy,9.4,15.1,130,SE,1014.0,29.95,0.0,0.0,70,25,32.4,90.2,10.0,6.0,7.0,13.9,22.3,383.9,43.3,6.5,4.9,4.4,10.1,1,1,06:19 AM,07:30 PM,09:31 AM,10:27 PM,Waxing Crescent,9
North Korea,Pyongyang,39.02,125.75,Asia,1722774600,2024-08-04,27.8,82.1,Patchy light rain in area with thunder,2.7,4.3,165,SSE,1007.0,29.73,0.22,0.01,86,88,32.9,91.1,10.0,6.0,1.0,5.5,8.8,447.3,46.5,3.0,2.0,64.8,70.1,3,8,05:41 AM,07:45 PM,04:56 AM,08:00 PM,New Moon,0
United Kingdom,London,51.52,-0.11,Europe,1725710400,2024-09-07,19.3,66.7,Partly cloudy,2.2,3.6,130,SE,1010.0,29.83,0.0,0.0,78,75,19.3,66.7,10.0,6.0,6.0,3.9,6.2,481.0,77.0,47.36,6.475,24.975,34.595,2,3,06:23 AM,07:33 PM,11:06 AM,08:38 PM,Waxing Crescent,13
Swaziland,Mbabane,-26.32,31.13,Africa,1723638600,2024-08-14,30.0,86.0,Sunny,17.4,28.1,270,W,1014.0,29.94,0.0,0.0,4,0,27.8,82.0,10.0,6.0,7.0,19.3,31.1,227.0,100.1,1.1,5.4,8.1,21.2,1,1,06:25 AM,05:36 PM,12:07 PM,01:37 AM,Waxing Gibbous,63
Uruguay,Montevideo,-34.86,-56.17,America,1722514500,2024-08-01,15.7,60.3,Partly Cloudy,13.0,20.9,18,NNE,1014.0,29.94,0.0,0.0,89,55,15.7,60.3,10.0,6.0,6.0,23.9,38.5,380.5,47.9,5.7,3.8,6.7,9.3,1,1,07:39 AM,06:04 PM,05:46 AM,03:09 PM,Waning Crescent,12
Cuba,Havana,23.13,-82.36,America,1717856100,2024-06-08,26.0,78.8,Partly cloudy,4.3,6.8,110,ESE,1016.0,30.0,1.66,0.07,94,75,27.8,82.1,9.0,5.0,6.0,17.7,28.5,534.1,60.1,23.0,71.5,18.6,21.7,2,2,06:43 AM,08:14 PM,08:28 AM,10:41 PM,Waxing Crescent,3
Belgium,'S Gravenjansdijk,51.25,3.63,Europe,1718460000,2024-06-15,17.4,63.3,Overcast,13.6,22.0,210,SSW,1004.0,29.65,0.32,0.01,59,100,17.4,63.3,10.0,6.0,4.0,26.8,43.2,173.6,68.7,2.1,0.8,0.6,0.7,1,1,05:29 AM,10:03 PM,03:01 PM,02:20 AM,Waxing Gibbous,57
Poland,Warsaw,52.25,21.0,Europe,1724587200,2024-08-25,32.2,90.0,Sunny,8.1,13.0,210,SSW,1013.0,29.91,0.0,0.0,46,0,31.1,87.9,10.0,6.0,8.0,15.7,25.3,263.7,130.2,5.1,7.1,14.8,16.0,1,2,05:37 AM,07:39 PM,09:36 PM,01:31 PM,Waning Gibbous,65
Finland,Helsinki,60.18,24.93,Europe,1721048400,2024-07-15,20.4,68.6,Sunny,11.2,18.0,241,WSW,1017.0,30.02,0.0,0.0,55,3,20.4,68.6,10.0,6.0,6.0,14.9,24.0,155.2,104.4,2.0,1.4,2.7,3.7,1,1,04:23 AM,10:28 PM,04:34 PM,12:00 AM,Waxing Gibbous,60
Netherlands,Amsterdam,52.37,4.89,Europe,1723982400,2024-08-18,22.0,71.6,Partly cloudy,11.9,19.1,310,NW,1012.0,29.88,0.0,0.0,61,25,24.4,76.0,10.0,6.0,6.0,16.3,26.3,208.6,95.8,3.2,1.4,4.3,9.0,1,1,06:29 AM,08:58 PM,08:57 PM,03:53 AM,Waxing Gibbous,95
Kenya,Nairobi,-1.28,36.82,Africa,1716732900,2024-05-26,25.0,77.0,Partly cloudy,2.2,3.6,10,N,1022.0,30.18,0.41,0.02,51,75,26.4,79.6,10.0,6.0,6.0,9.1,14.7,1535.4,52.9,20.2,5.4,51.5,81.5,3,6,06:28 AM,06:31 PM,09:19 PM,08:54 AM,Waning Gibbous,93
Gabon,Libreville,0.38,9.45,Africa,1716302700,2024-05-21,29.0,84.2,Partly cloudy,10.5,16.9,240,WSW,1010.0,29.83,0.0,0.0,79,75,33.9,93.1,10.0,6.0,7.0,11.6,18.6,433.9,27.9,5.9,5.0,7.9,13.3,1,1,06:15 AM,06:23 PM,04:47 PM,04:23 AM,Waxing Gibbous,93
Micronesia,Palikir,6.92,158.15,Pacific,1726317000,2024-09-14,28.2,82.8,Partly cloudy,14.8,23.8,151,SSE,1007.0,29.74,0.11,0.0,84,75,31.8,89.3,24.0,14.0,1.0,20.2,32.5,194.25,21.0,0.0,0.185,14.245,27.565,1,2,06:18 AM,06:28 PM,03:11 PM,02:11 AM,Waxing Gibbous,78
Madagascar,Ivory,-24.37,46.45,Indian,1725105600,2024-08-31,23.8,74.8,Light rain shower,7.4,11.9,163,SSE,1019.0,30.09,1.49,0.06,55,81,25.2,77.4,10.0,6.0,6.0,14.2,22.9,227.0,67.2,0.1,0.1,1.1,1.3,1,1,06:06 AM,05:43 PM,04:33 AM,03:26 PM,Waning Crescent,9
Tajikistan,Dushanbe,38.56,68.77,Asia,1717164900,2024-05-31,28.0,82.4,Sunny,4.3,6.8,220,SW,1016.0,30.0,0.05,0.0,27,0,28.2,82.7,10.0,6.0,5.0,6.6,10.5,193.6,73.7,1.2,3.2,2.4,4.5,1,1,05:03 AM,07:43 PM,01:18 AM,12:46 PM,Waning Crescent,47
Solomon Islands,Honiara,-9.43,159.95,Pacific,1721220300,2024-07-17,24.0,75.2,Partly cloudy,2.5,4.0,180,S,1012.0,29.88,0.0,0.0,100,75,26.1,79.0,10.0,6.0,1.0,9.0,14.4,213.6,16.5,1.0,0.5,0.5,0.6,1,1,06:37 AM,06:15 PM,02:13 PM,02:21 AM,Waxing Gibbous,78
Kiribati,Tarawa,-0.88,169.53,Pacific,1721133900,2024-07-17,28.6,83.5,Light rain shower,11.9,19.1,89,E,1008.0,29.77,0.37,0.01,77,85,33.1,91.7,10.0,6.0,1.0,15.9,25.7,223.6,14.5,0.0,-9999.0,0.5,0.9,1,1,06:46 AM,06:50 PM,02:01 PM,01:40 AM,Waxing Gibbous,69
Vanuatu,Port Vila,-17.73,168.32,Pacific,1723982400,2024-08-18,23.2,73.8,Partly cloudy,2.2,3.6,71,ENE,1016.0,30.0,0.0,0.0,94,25,25.5,77.8,10.0,6.0,1.0,11.7,18.8,205.3,42.9,0.1,0.1,2.5,9.7,1,1,06:04 AM,05:38 PM,03:58 PM,04:37 AM,Waxing Gibbous,95
Argentina,Buenos Aires,-34.59,-58.67,America,1720788300,2024-07-12,3.2,37.8,Mist,2.2,3.6,10,N,1035.0,30.56,0.0,0.0,100,0,2.5,36.5,3.0,1.0,3.0,4.3,6.8,1455.3,0.5,32.2,8.5,25.3,29.9,2,3,08:00 AM,06:01 PM,11:49 AM,No moonset,Waxing Crescent,32
Burkina Faso,Ouagadougou,12.37,-1.52,Africa,1718719200,2024-06-18,37.7,99.8,Sunny,6.0,9.7,109,ESE,1009.0,29.8,0.0,0.0,28,17,39.0,102.1,10.0,6.0,9.0,7.0,11.2,527.4,46.5,0.8,1.2,8.8,24.3,1,1,05:42 AM,06:33 PM,03:29 PM,02:30 AM,Waxing Gibbous,83
Estonia,Tallinn,59.43,24.73,Europe,1718804700,2024-06-19,15.2,59.4,Partly cloudy,5.6,9.0,250,WSW,1006.0,29.71,0.07,0.0,82,75,15.2,59.4,10.0,6.0,3.0,7.6,12.3,163.6,105.9,1.5,1.4,4.2,5.0,1,1,04:03 AM,10:42 PM,08:34 PM,01:57 AM,Waxing Gibbous,90
Monaco,Monaco,43.73,7.42,Europe,1721997000,2024-07-26,27.4,81.3,Sunny,5.8,9.4,140,SE,1012.0,29.89,0.0,0.0,73,6,30.1,86.2,10.0,6.0,7.0,6.7,10.8,230.3,123.0,0.7,0.8,8.8,9.6,1,1,06:13 AM,09:00 PM,11:47 PM,12:12 PM,Waning Gibbous,74
Liberia,Monrovia,6.31,-10.8,Africa,1724500800,2024-08-24,24.9,76.7,Light rain shower,14.1,22.7,218,SW,1013.0,29.92,2.1,0.08,91,100,27.6,81.7,10.0,6.0,5.0,29.5,47.5,383.9,40.8,0.3,0.1,0.5,1.1,1,1,06:37 AM,06:54 PM,11:01 PM,10:50 AM,Waning Gibbous,76
Guatemala,Guatemala City,14.62,-90.53,America,1724932800,2024-08-29,18.2,64.8,Sunny,2.2,3.6,313,NW,1022.0,30.18,0.0,0.0,94,0,18.2,64.8,10.0,6.0,4.0,4.2,6.7,721.0,1.2,6.9,12.2,49.3,72.2,3,6,05:50 AM,06:15 PM,01:55 AM,03:26 PM,Waning Crescent,24
United Kingdom,London,51.52,-0.11,Europe,1726830000,2024-09-20,19.1,66.4,Partly cloudy,13.6,22.0,80,E,1021.0,30.15,0.0,0.0,78,50,19.1,66.4,10.0,6.0,6.0,15.7,25.3,349.65,76.0,16.65,3.885,21.275,27.565,2,2,06:44 AM,07:02 PM,07:48 PM,09:59 AM,Waning Gibbous,95
Qatar,Doha,25.29,51.53,Asia,1723465800,2024-08-12,37.4,99.3,Sunny,12.8,20.5,99,E,996.0,29.42,0.0,0.0,47,12,45.6,114.1,10.0,6.0,9.0,15.6,25.1,327.1,294.7,17.7,39.6,66.9,128.8,4,9,05:06 AM,06:11 PM,11:44 AM,10:39 PM,First Quarter,44
Indonesia,Jakarta,-6.21,106.85,Asia,1722083400,2024-07-27,29.6,85.3,Clear,8.9,14.4,33,NNE,1009.0,29.81,0.0,0.0,61,19,32.6,90.6,10.0,6.0,1.0,11.3,18.3,3578.2,42.2,93.2,31.0,94.4,123.7,4,10,06:04 AM,05:54 PM,11:23 PM,10:46 AM,Waning Gibbous,63
Zambia,Lusaka,-15.42,28.28,Africa,1717942500,2024-06-09,19.2,66.6,Sunny,10.3,16.6,80,E,1022.0,30.19,0.0,0.0,48,15,19.2,66.6,10.0,6.0,6.0,12.1,19.4,774.4,50.8,2.6,3.3,8.0,13.1,1,1,06:29 AM,05:43 PM,09:11 AM,08:33 PM,Waxing Crescent,7
Saint Lucia,Castries,14.0,-61.0,America,1718545500,2024-06-16,31.1,88.0,Partly cloudy,8.1,13.0,70,ENE,1015.0,29.97,0.0,0.0,66,50,36.9,98.5,10.0,6.0,7.0,13.8,22.1,210.3,28.6,0.0,0.1,1.4,6.8,1,1,05:37 AM,06:33 PM,01:59 PM,01:20 AM,Waxing Gibbous,67
Mexico,Mexico City,19.43,-99.13,America,1716906600,2024-05-28,21.0,69.8,Partly cloudy,5.6,9.0,310,NW,1031.0,30.44,0.0,0.0,53,75,21.0,69.8,11.0,6.0,6.0,10.1,16.2,1028.1,1.2,43.9,20.5,31.8,46.4,2,3,05:58 AM,07:10 PM,No moonrise,10:37 AM,Waning Gibbous,79
Germany,Berlin,52.52,13.4,Europe,1716561000,2024-05-24,26.0,78.8,Sunny,16.1,25.9,90,E,1017.0,30.03,0.0,0.0,37,0,26.6,79.9,10.0,6.0,6.0,20.6,33.1,191.9,110.2,3.4,1.9,3.1,3.5,1,1,04:57 AM,09:10 PM,11:02 PM,04:47 AM,Waning Gibbous,100
Nicaragua,Managua,12.15,-86.27,America,1721909700,2024-07-25,23.6,74.4,Partly Cloudy,2.7,4.3,75,ENE,1013.0,29.92,0.0,0.0,86,41,25.7,78.2,10.0,6.0,6.0,5.0,8.1,191.9,18.1,2.9,3.7,1.1,1.7,1,1,05:31 AM,06:12 PM,09:55 PM,09:31 AM,Waning Gibbous,83
Qatar,Doha,25.29,51.53,Asia,1718719200,2024-06-18,40.0,104.0,Sunny,8.1,13.0,30,NNE,1000.0,29.53,0.0,0.0,28,0,43.8,110.8,10.0,6.0,9.0,17.8,28.7,363.8,186.0,59.0,30.0,36.6,57.8,2,4,04:44 AM,06:26 PM,03:10 PM,01:35 AM,Waxing Gibbous,83
India,New Delhi,28.6,77.2,Asia,1719839700,2024-07-01,34.3,93.7,Mist,5.6,9.0,240,WSW,994.0,29.35,0.0,0.0,63,50,37.2,99.0,4.0,2.0,9.0,10.1,16.2,540.7,25.8,20.4,11.2,9.1,15.5,1,1,05:27 AM,07:23 PM,01:17 AM,02:58 PM,Waning Crescent,27
Belgium,Brussels,50.83,4.33,Europe,1722774600,2024-08-04,20.6,69.0,Patchy rain nearby,4.9,7.9,261,W,1015.0,29.98,0.09,0.0,70,100,20.6,69.0,10.0,6.0,5.0,6.2,10.0,198.6,88.0,4.3,1.8,6.1,13.9,1,1,06:14 AM,09:23 PM,05:39 AM,09:52 PM,New Moon,0
Dominican Republic,Santo Domingo,18.47,-69.9,America,1723638600,2024-08-14,27.2,81.0,Partly cloudy,11.9,19.1,320,NW,1010.0,29.83,0.0,0.0,89,75,30.2,86.3,10.0,6.0,7.0,12.7,20.4,186.9,29.7,3.4,1.6,1.1,2.0,1,1,06:21 AM,07:07 PM,02:49 PM,12:58 AM,Waxing Gibbous,63
Jordan,Amman,31.95,35.93,Asia,1719150300,2024-06-23,31.1,88.0,Partly cloudy,6.9,11.2,260,W,1009.0,29.8,0.0,0.0,36,25,30.4,86.7,6.0,3.0,7.0,26.5,42.7,178.6,143.1,1.8,2.4,10.9,18.1,1,1,05:32 AM,07:46 PM,09:29 PM,06:25 AM,Waning Gibbous,99
Zimbabwe,Harare,-17.82,31.04,Africa,1716646500,2024-05-25,23.8,74.8,Sunny,4.0,6.5,60,ENE,1016.0,30.01,0.0,0.0,24,5,23.5,74.2,10.0,6.0,7.0,4.6,7.5,474.0,68.7,7.4,12.3,27.3,33.1,2,3,06:17 AM,05:28 PM,07:05 PM,07:57 AM,Waning Gibbous,98
Palau,Koror,7.33,134.48,Pacific,1723465800,2024-08-12,28.7,83.7,Partly Cloudy,2.2,3.6,110,ESE,1009.0,29.8,0.0,0.0,70,39,32.3,90.1,10.0,6.0,1.0,6.7,10.8,208.6,19.1,0.1,0.1,0.5,0.8,1,1,05:56 AM,06:18 PM,11:31 AM,11:30 PM,First Quarter,44
Andorra,Andorra La Vella,42.5,1.52,Europe,1722774600,2024-08-04,25.9,78.7,Sunny,4.7,7.6,242,WSW,1015.0,29.98,0.0,0.0,31,4,25.4,77.7,10.0,6.0,7.0,5.4,8.7,160.2,68.0,0.2,0.1,1.5,2.0,1,1,06:49 AM,09:10 PM,06:25 AM,09:36 PM,New Moon,0
Bhutan,Thimphu,27.48,89.6,Asia,1722514500,2024-08-01,16.2,61.2,Patchy rain nearby,4.0,6.5,130,SE,1006.0,29.7,0.55,0.02,86,86,16.2,61.2,9.0,5.0,4.0,5.7,9.2,243.7,36.8,0.4,0.4,5.6,6.9,1,1,05:25 AM,06:50 PM,01:59 AM,04:42 PM,Waning Crescent,12
Cambodia,Phnom Penh,11.55,104.92,Asia,1721306700,2024-07-18,27.3,81.1,Partly cloudy,4.3,6.8,210,SSW,1007.0,29.74,0.01,0.0,100,75,32.7,90.9,10.0,6.0,1.0,9.1,14.6,474.0,24.0,6.0,2.5,6.0,12.0,1,1,05:45 AM,06:28 PM,03:40 PM,02:21 AM,Waxing Gibbous,86
Madagascar,Antananarivo,-18.92,47.52,Indian,1724932800,2024-08-29,20.3,68.5,Partly cloudy,13.6,22.0,130,SE,1024.0,30.24,0.0,0.0,53,75,20.3,68.5,10.0,6.0,7.0,18.1,29.2,283.7,63.7,0.7,1.1,2.2,5.4,1,1,06:00 AM,05:42 PM,02:39 AM,01:38 PM,Waning Crescent,24
Honduras,Tegucigalpa,14.1,-87.22,America,1724848200,2024-08-28,21.1,70.0,Partly cloudy,2.2,3.6,10,N,1020.0,30.12,0.0,0.0,88,50,21.1,70.0,10.0,6.0,4.0,5.6,9.1,240.3,11.6,2.1,0.3,1.8,4.7,1,1,05:37 AM,06:03 PM,12:45 AM,02:17 PM,Waning Crescent,33
Fiji Islands,Suva,-18.13,178.42,Pacific,1718201700,2024-06-13,21.3,70.3,Partly cloudy,2.2,3.6,357,N,1012.0,29.88,0.0,0.0,100,25,21.3,70.3,10.0,6.0,1.0,3.1,5.0,145.2,2.7,1.4,0.8,1.3,1.7,1,1,06:34 AM,05:38 PM,11:06 AM,10:45 PM,Waxing Crescent,29
Germany,Berlin,52.52,13.4,Europe,1715868000,2024-05-16,24.0,75.2,Sunny,24.2,38.9,110,ESE,1009.0,29.8,0.0,0.0,31,0,24.4,76.0,10.0,6.0,5.0,28.6,46.1,198.6,105.9,2.7,2.4,4.5,5.0,1,1,05:08 AM,08:58 PM,01:03 PM,03:06 AM,Waxing Gibbous,55
Palau,Airai,7.36,134.56,Pacific,1725020100,2024-08-30,25.1,77.2,Light rain,5.6,9.0,270,W,1009.0,29.8,4.51,0.18,89,100,27.2,80.9,13.0,8.0,1.0,6.4,10.3,203.6,10.2,0.1,0.0,0.5,1.0,1,1,05:55 AM,06:10 PM,02:32 AM,03:29 PM,Waning Crescent,15
Benin,Porto-Novo,6.48,2.62,Africa,1724328000,2024-08-22,27.0,80.6,Partly cloudy,13.6,22.0,240,WSW,1015.0,29.97,0.44,0.02,79,50,28.9,84.0,10.0,6.0,6.0,18.1,29.2,487.3,35.8,2.3,1.2,4.4,8.7,1,1,06:43 AM,07:01 PM,09:29 PM,09:06 AM,Waning Gibbous,93
Cyprus,Nicosia,35.17,33.37,Asia,1725624900,2024-09-06,35.1,95.2,Partly cloudy,5.6,9.0,140,SE,1007.0,29.74,0.0,0.0,44,50,37.7,99.9,10.0,6.0,8.0,10.1,16.2,266.4,102.0,1.48,3.33,17.945,23.68,2,2,06:23 AM,07:06 PM,09:15 AM,08:37 PM,Waxing Crescent,7
Denmark,Copenhagen,55.67,12.58,Europe,1718114400,2024-06-11,15.1,59.2,Partly cloudy,17.4,28.1,250,WSW,1006.0,29.71,0.52,0.02,67,75,15.1,59.2,10.0,6.0,3.0,21.9,35.3,176.9,72.2,2.3,0.5,0.8,1.3,1,1,04:26 AM,09:53 PM,09:18 AM,01:16 AM,Waxing Crescent,21
Samoa,Apia,-13.83,-171.73,Pacific,1716992100,2024-05-30,27.0,80.6,Partly cloudy,2.2,3.6,10,N,1011.0,29.85,0.49,0.02,89,75,30.1,86.2,10.0,6.0,1.0,22.0,35.4,217.0,16.8,0.7,0.3,1.0,2.2,1,1,06:43 AM,06:06 PM,11:21 PM,11:35 AM,Waning Gibbous,69
